{"name":"Boston Search","date":"2014-09-21T02:00:00.000Z","location":{"city":"Boston","state":"MA","image":"/images/boston.jpg"},"sponsors":["Scour"],"registration_cost":25,"prizes":[{"prize":"","clues":[{}]}],"registrant_limit":175,"registrant_count":45,"registration_start_time":"2014-08-22T02:00:00.000Z","status":""}
{"name":"Boston Hunt","date":"2014-12-09T03:00:00.000Z","location":{"city":"Boston","state":"MA","image":"/images/boston.jpg"},"sponsors":["Scour"],"registration_cost":10,"prizes":[{"prize":"","clues":[{}]}],"registrant_limit":150,"registrant_count":129,"registration_start_time":"2014-11-09T03:00:00.000Z","status":""}
{"name":"Los Angeles Search","date":"2014-02-01T04:00:00.000Z","location":{"city":"Los Angeles","state":"CA","image":"/images/losangeles.jpg"},"sponsors":["Scour"],"registration_cost":5,"prizes":[{"prize":"","clues":[{}]}],"registrant_limit":125,"registrant_count":95,"registration_start_time":"2014-01-02T04:00:00.000Z","status":""}
{"name":"Seattle Quest","date":"2014-10-13T02:00:00.000Z","location":{"city":"Seattle","state":"WA","image":"/images/seattle.jpg"},"sponsors":["Scour"],"registration_cost":5,"prizes":[{"prize":"","clues":[{}]}],"registrant_limit":175,"registrant_count":86,"registration_start_time":"2014-09-13T02:00:00.000Z","status":""}
{"name":"Boston Search","date":"2014-12-25T03:00:00.000Z","location":{"city":"Boston","state":"MA","image":"/images/boston.jpg"},"sponsors":["Scour"],"registration_cost":10,"prizes":[{"prize":"","clues":[{}]}],"registrant_limit":150,"registrant_count":70,"registration_start_time":"2014-11-25T03:00:00.000Z","status":""}
{"name":"Boston Quest","date":"2014-12-18T02:00:00.000Z","location":{"city":"Boston","state":"MA","image":"/images/boston.jpg"},"sponsors":["Scour"],"registration_cost":15,"prizes":[{"prize":"","clues":[{}]}],"registrant_limit":125,"registrant_count":94,"registration_start_time":"2014-11-18T02:00:00.000Z","status":""}
{"name":"Los Angeles Search","date":"2014-08-30T01:00:00.000Z","location":{"city":"Los Angeles","state":"CA","image":"/images/losangeles.jpg"},"sponsors":["Scour"],"registration_cost":10,"prizes":[{"prize":"","clues":[{}]}],"registrant_limit":275,"registrant_count":223,"registration_start_time":"2014-07-31T01:00:00.000Z","status":""}
{"name":"Los Angeles Quest","date":"2014-05-16T03:00:00.000Z","location":{"city":"Los Angeles","state":"CA","image":"/images/losangeles.jpg"},"sponsors":["Scour"],"registration_cost":5,"prizes":[{"prize":"","clues":[{}]}],"registrant_limit":125,"registrant_count":90,"registration_start_time":"2014-04-16T03:00:00.000Z","status":""}
{"name":"Los Angeles Search","date":"2014-10-01T02:00:00.000Z","location":{"city":"Los Angeles","state":"CA","image":"/images/losangeles.jpg"},"sponsors":["Scour"],"registration_cost":15,"prizes":[{"prize":"","clues":[{}]}],"registrant_limit":200,"registrant_count":167,"registration_start_time":"2014-09-01T02:00:00.000Z","status":""}
{"name":"Seattle Search","date":"2014-10-25T01:00:00.000Z","location":{"city":"Seattle","state":"WA","image":"/images/seattle.jpg"},"sponsors":["Scour"],"registration_cost":5,"prizes":[{"prize":"","clues":[{}]}],"registrant_limit":100,"registrant_count":56,"registration_start_time":"2014-09-25T01:00:00.000Z","status":""}
{"name":"Los Angeles Hunt","date":"2014-02-11T03:00:00.000Z","location":{"city":"Los Angeles","state":"CA","image":"/images/losangeles.jpg"},"sponsors":["Scour"],"registration_cost":10,"prizes":[{"prize":"","clues":[{}]}],"registrant_limit":150,"registrant_count":30,"registration_start_time":"2014-01-12T03:00:00.000Z","status":""}
{"name":"Seattle Search","date":"2014-08-29T01:00:00.000Z","location":{"city":"Seattle","state":"WA","image":"/images/seattle.jpg"},"sponsors":["Scour"],"registration_cost":10,"prizes":[{"prize":"","clues":[{}]}],"registrant_limit":125,"registrant_count":94,"registration_start_time":"2014-07-30T01:00:00.000Z","status":""}
{"name":"New York Quest","date":"2014-01-19T04:00:00.000Z","location":{"city":"New York","state":"NY","image":"/images/newyork.jpg"},"sponsors":["Scour"],"registration_cost":5,"prizes":[{"prize":"","clues":[{}]}],"registrant_limit":300,"registrant_count":106,"registration_start_time":"2013-12-20T04:00:00.000Z","status":""}
{"name":"Chicago Search","date":"2014-07-03T03:00:00.000Z","location":{"city":"Chicago","state":"IL","image":"/images/chicago.jpg"},"sponsors":["Scour"],"registration_cost":5,"prizes":[{"prize":"","clues":[{}]}],"registrant_limit":200,"registrant_count":97,"registration_start_time":"2014-06-03T03:00:00.000Z","status":""}
{"name":"Chicago Hunt","date":"2014-08-22T02:00:00.000Z","location":{"city":"Chicago","state":"IL","image":"/images/chicago.jpg"},"sponsors":["Scour"],"registration_cost":20,"prizes":[{"prize":"","clues":[{}]}],"registrant_limit":175,"registrant_count":123,"registration_start_time":"2014-07-23T02:00:00.000Z","status":""}
{"name":"Boston Quest","date":"2014-02-12T03:00:00.000Z","location":{"city":"Boston","state":"MA","image":"/images/boston.jpg"},"sponsors":["Scour"],"registration_cost":5,"prizes":[{"prize":"","clues":[{}]}],"registrant_limit":225,"registrant_count":40,"registration_start_time":"2014-01-13T03:00:00.000Z","status":""}
{"name":"Seattle Hunt","date":"2014-06-14T02:00:00.000Z","location":{"city":"Seattle","state":"WA","image":"/images/seattle.jpg"},"sponsors":["Scour"],"registration_cost":10,"prizes":[{"prize":"","clues":[{}]}],"registrant_limit":225,"registrant_count":117,"registration_start_time":"2014-05-15T02:00:00.000Z","status":""}
{"name":"Boston Quest","date":"2014-08-28T01:00:00.000Z","location":{"city":"Boston","state":"MA","image":"/images/boston.jpg"},"sponsors":["Scour"],"registration_cost":20,"prizes":[{"prize":"","clues":[{}]}],"registrant_limit":125,"registrant_count":118,"registration_start_time":"2014-07-29T01:00:00.000Z","status":""}
{"name":"New York Search","date":"2014-07-15T03:00:00.000Z","location":{"city":"New York","state":"NY","image":"/images/newyork.jpg"},"sponsors":["Scour"],"registration_cost":10,"prizes":[{"prize":"","clues":[{}]}],"registrant_limit":200,"registrant_count":191,"registration_start_time":"2014-06-15T03:00:00.000Z","status":""}
{"name":"Boston Hunt","date":"2014-08-23T01:00:00.000Z","location":{"city":"Boston","state":"MA","image":"/images/boston.jpg"},"sponsors":["Scour"],"registration_cost":10,"prizes":[{"prize":"","clues":[{}]}],"registrant_limit":175,"registrant_count":81,"registration_start_time":"2014-07-24T01:00:00.000Z","status":""}
{"name":"Los Angeles Hunt","date":"2014-03-31T03:00:00.000Z","location":{"city":"Los Angeles","state":"CA","image":"/images/losangeles.jpg"},"sponsors":["Scour"],"registration_cost":5,"prizes":[{"prize":"","clues":[{}]}],"registrant_limit":175,"registrant_count":62,"registration_start_time":"2014-03-01T04:00:00.000Z","status":""}
{"name":"Los Angeles Hunt","date":"2014-12-29T04:00:00.000Z","location":{"city":"Los Angeles","state":"CA","image":"/images/losangeles.jpg"},"sponsors":["Scour"],"registration_cost":20,"prizes":[{"prize":"","clues":[{}]}],"registrant_limit":250,"registrant_count":45,"registration_start_time":"2014-11-29T04:00:00.000Z","status":""}
{"name":"Chicago Search","date":"2014-09-24T01:00:00.000Z","location":{"city":"Chicago","state":"IL","image":"/images/chicago.jpg"},"sponsors":["Scour"],"registration_cost":15,"prizes":[{"prize":"","clues":[{}]}],"registrant_limit":150,"registrant_count":140,"registration_start_time":"2014-08-25T01:00:00.000Z","status":""}
{"name":"Chicago Hunt","date":"2014-10-31T03:00:00.000Z","location":{"city":"Chicago","state":"IL","image":"/images/chicago.jpg"},"sponsors":["Scour"],"registration_cost":20,"prizes":[{"prize":"","clues":[{}]}],"registrant_limit":175,"registrant_count":171,"registration_start_time":"2014-10-01T03:00:00.000Z","status":""}
{"name":"Los Angeles Quest","date":"2014-11-23T02:00:00.000Z","location":{"city":"Los Angeles","state":"CA","image":"/images/losangeles.jpg"},"sponsors":["Scour"],"registration_cost":25,"prizes":[{"prize":"","clues":[{}]}],"registrant_limit":300,"registrant_count":236,"registration_start_time":"2014-10-24T01:00:00.000Z","status":""}
{"name":"Chicago Search","date":"2014-01-31T04:00:00.000Z","location":{"city":"Chicago","state":"IL","image":"/images/chicago.jpg"},"sponsors":["Scour"],"registration_cost":5,"prizes":[{"prize":"","clues":[{}]}],"registrant_limit":100,"registrant_count":41,"registration_start_time":"2014-01-01T04:00:00.000Z","status":""}
{"name":"New York Hunt","date":"2014-10-26T02:00:00.000Z","location":{"city":"New York","state":"NY","image":"/images/newyork.jpg"},"sponsors":["Scour"],"registration_cost":10,"prizes":[{"prize":"","clues":[{}]}],"registrant_limit":175,"registrant_count":44,"registration_start_time":"2014-09-26T02:00:00.000Z","status":""}
{"name":"Boston Hunt","date":"2014-09-27T01:00:00.000Z","location":{"city":"Boston","state":"MA","image":"/images/boston.jpg"},"sponsors":["Scour"],"registration_cost":25,"prizes":[{"prize":"","clues":[{}]}],"registrant_limit":150,"registrant_count":148,"registration_start_time":"2014-08-28T01:00:00.000Z","status":""}
{"name":"Seattle Search","date":"2014-06-16T03:00:00.000Z","location":{"city":"Seattle","state":"WA","image":"/images/seattle.jpg"},"sponsors":["Scour"],"registration_cost":10,"prizes":[{"prize":"","clues":[{}]}],"registrant_limit":175,"registrant_count":111,"registration_start_time":"2014-05-17T03:00:00.000Z","status":""}
{"name":"Boston Search","date":"2014-02-28T03:00:00.000Z","location":{"city":"Boston","state":"MA","image":"/images/boston.jpg"},"sponsors":["Scour"],"registration_cost":5,"prizes":[{"prize":"","clues":[{}]}],"registrant_limit":125,"registrant_count":90,"registration_start_time":"2014-01-29T03:00:00.000Z","status":""}
